{
"events": [
{
"event_type": "3",
"event_id": "4103",
"store_id": "8",
"date": "03/23/2016",
"start_time": "19:00",
"end_time": "21:00",
"store_name": "Menlo Park",
"address1": "275 MENLO PARK MALL",
"address2": "Menlo Park Mall",
"city": "Menlo Park",
"state": "NJ",
"zip": "08837",
"region": "Mid-Atlantic",
"district": "NJ Central",
"floor": "1st floor",
"contact_phone": "000-000-0000",
"contact_email": "menswearhouse@macys.com",
"phone": "732-549-4400",
"lat": "40.5200",
"lon": "-74.3600",
"event_status": "0"
},
{
"event_type": "3",
"event_id": "4104",
"store_id": "15",
"date": "03/23/2016",
"start_time": "19:00",
"end_time": "21:00",
"store_name": "Short Hills",
"address1": "1220 Morris Turnpike",
"address2": "Short Hills Mall",
"city": "Short Hills",
"state": "NJ",
"zip": "07078",
"region": "Mid-Atlantic",
"district": "NJ North",
"floor": "1st floor",
"contact_phone": "000-000-0000",
"contact_email": "menswearhouse@macys.com",
"phone": "973-467-0800",
"lat": "40.7400",
"lon": "-74.3300",
"event_status": "0"
},
{
"event_type": "3",
"event_id": "4105",
"store_id": "75",
"date": "03/23/2016",
"start_time": "19:00",
"end_time": "21:00",
"store_name": "Garden State Plaza",
"address1": "500 Garden State Plaza",
"address2": "",
"city": "Paramus",
"state": "NJ",
"zip": "07652",
"region": "Northeast",
"district": "NYC Metro",
"floor": "1st floor",
"contact_phone": "000-000-0000",
"contact_email": "menswearhouse@macys.com",
"phone": "201-843-9100",
"lat": "40.9400",
"lon": "-74.0700",
"event_status": "0"
},
{
"event_type": "3",
"event_id": "4106",
"store_id": "81",
"date": "03/23/2016",
"start_time": "19:00",
"end_time": "21:00",
"store_name": "Bridgewater Commons",
"address1": "400 Commons Way",
"address2": "Bridgewater Commons",
"city": "Bridgewater",
"state": "NJ",
"zip": "08807",
"region": "Mid-Atlantic",
"district": "NJ Central",
"floor": "1st floor",
"contact_phone": "000-000-0000",
"contact_email": "menswearhouse@macys.com",
"phone": "908-725-1400",
"lat": "40.5900",
"lon": "-74.6200",
"event_status": "0"
},
{
"event_type": "3",
"event_id": "4107",
"store_id": "333",
"date": "03/23/2016",
"start_time": "19:00",
"end_time": "21:00",
"store_name": "Pleasanton Stoneridge",
"address1": "1300 STONERIDGE MALL RD.",
"address2": "",
"city": "Pleasanton",
"state": "CA",
"zip": "94588",
"region": "Northwest",
"district": "Bay Area South",
"floor": "1st floor",
"contact_phone": "000-000-0000",
"contact_email": "menswearhouse@macys.com",
"phone": "925-463-3333",
"lat": "37.6700",
"lon": "-121.9300",
"event_status": "0"
},
{
"event_type": "3",
"event_id": "4108",
"store_id": "358",
"date": "03/23/2016",
"start_time": "19:00",
"end_time": "21:00",
"store_name": "Valley Fair",
"address1": "2801 STEVENS CREEK BLVD.",
"address2": "",
"city": "Santa Clara",
"state": "CA",
"zip": "95050",
"region": "Northwest",
"district": "Valley Fair",
"floor": "1st floor",
"contact_phone": "000-000-0000",
"contact_email": "menswearhouse@macys.com",
"phone": "408-248-3333",
"lat": "37.3400",
"lon": "-121.9500",
"event_status": "0"
},
{
"event_type": "3",
"event_id": "4109",
"store_id": "359",
"date": "03/23/2016",
"start_time": "19:00",
"end_time": "21:00",
"store_name": "Fresno Fashion Fair",
"address1": "4888 NORTH FRESNO ST.",
"address2": "",
"city": "Fresno",
"state": "CA",
"zip": "93726",
"region": "Northwest",
"district": "Bay Area South",
"floor": "1st floor",
"contact_phone": "000-000-0000",
"contact_email": "menswearhouse@macys.com",
"phone": "559-228-3333",
"lat": "36.7900",
"lon": "-119.7600",
"event_status": "0"
},
{
"event_type": "3",
"event_id": "4110",
"store_id": "686",
"date": "03/23/2016",
"start_time": "19:00",
"end_time": "21:00",
"store_name": "Memorial City",
"address1": "303 Memorial City",
"address2": "Suite 800",
"city": "Houston",
"state": "TX",
"zip": "77024",
"region": "South Central",
"district": "Houston-Louisiana",
"floor": "1st floor",
"contact_phone": "000-000-0000",
"contact_email": "menswearhouse@macys.com",
"phone": "713-461-0400",
"lat": "29.7600",
"lon": "-95.3800",
"event_status": "0"
},
{
"event_type": "3",
"event_id": "4111",
"store_id": "687",
"date": "03/23/2016",
"start_time": "19:00",
"end_time": "21:00",
"store_name": "Galleria Houston At Hildago",
"address1": "5135 WEST ALABAMA",
"address2": "",
"city": "Houston",
"state": "TX",
"zip": "77056",
"region": "South Central",
"district": "Houston-Louisiana",
"floor": "1st floor",
"contact_phone": "000-000-0000",
"contact_email": "menswearhouse@macys.com",
"phone": "832-667-4200",
"lat": "29.7600",
"lon": "-95.3800",
"event_status": "0"
},
{
"event_type": "3",
"event_id": "4112",
"store_id": "715",
"date": "03/23/2016",
"start_time": "19:00",
"end_time": "21:00",
"store_name": "Willowbrook",
"address1": "4000 WILLOWBROOK MALL",
"address2": "",
"city": "Houston",
"state": "TX",
"zip": "77070",
"region": "South Central",
"district": "South Houston",
"floor": "1st floor",
"contact_phone": "000-000-0000",
"contact_email": "menswearhouse@macys.com",
"phone": "281-955-4300",
"lat": "29.7600",
"lon": "-95.3800",
"event_status": "0"
},
{
"event_type": "3",
"event_id": "4114",
"store_id": "717",
"date": "03/23/2016",
"start_time": "19:00",
"end_time": "21:00",
"store_name": "Baybrook",
"address1": "100 BAYBROOK MALL",
"address2": "",
"city": "Friendswood",
"state": "TX",
"zip": "77546",
"region": "South Central",
"district": "South Houston",
"floor": "1st floor",
"contact_phone": "000-000-0000",
"contact_email": "menswearhouse@macys.com",
"phone": "281-226-5300",
"lat": "29.5100",
"lon": "-95.1900",
"event_status": "0"
},
{
"event_type": "3",
"event_id": "4115",
"store_id": "260",
"date": "03/23/2016",
"start_time": "19:00",
"end_time": "21:00",
"store_name": "Mayfair",
"address1": "2500 N. MAYFAIR ROAD",
"address2": "",
"city": "Wauwatosa",
"state": "WI",
"zip": "53226",
"region": "North",
"district": "Chicago North",
"floor": "1st floor",
"contact_phone": "000-000-0000",
"contact_email": "menswearhouse@macys.com",
"phone": "414-471-3525",
"lat": "43.0600",
"lon": "-87.9600",
"event_status": "0"
},
{
"event_type": "3",
"event_id": "4116",
"store_id": "38",
"date": "03/23/2016",
"start_time": "19:00",
"end_time": "21:00",
"store_name": "South Portland",
"address1": "100 Maine Mall Road",
"address2": "Maine Mall",
"city": "Portland",
"state": "ME",
"zip": "04106",
"region": "Northeast",
"district": "New England North",
"floor": "1st floor",
"contact_phone": "000-000-0000",
"contact_email": "menswearhouse@macys.com",
"phone": "207-775-5431",
"lat": "43.6300",
"lon": "-70.2800",
"event_status": "0"
},
{
"event_type": "3",
"event_id": "4117",
"store_id": "40",
"date": "03/23/2016",
"start_time": "19:00",
"end_time": "21:00",
"store_name": "Natick Collection",
"address1": "1245 WORCESTER ROAD",
"address2": "",
"city": "Natick",
"state": "MA",
"zip": "01760",
"region": "Northeast",
"district": "New England Central",
"floor": "1st floor",
"contact_phone": "000-000-0000",
"contact_email": "menswearhouse@macys.com",
"phone": "508-653-3800",
"lat": "42.2800",
"lon": "-71.3500",
"event_status": "0"
},
{
"event_type": "3",
"event_id": "4118",
"store_id": "166",
"date": "03/23/2016",
"start_time": "19:00",
"end_time": "21:00",
"store_name": "Short Pump Town Center",
"address1": "11872 W. BROAD STREET",
"address2": "",
"city": "Richmond",
"state": "VA",
"zip": "23233",
"region": "Mid-Atlantic",
"district": "Richmond",
"floor": "1st floor",
"contact_phone": "000-000-0000",
"contact_email": "menswearhouse@macys.com",
"phone": "",
"lat": "37.5500",
"lon": "-77.4600",
"event_status": "0"
},
{
"event_type": "3",
"event_id": "4119",
"store_id": "733",
"date": "03/23/2016",
"start_time": "19:00",
"end_time": "21:00",
"store_name": "Mall Of Georgia",
"address1": "3333 BUFORD DRIVE",
"address2": "",
"city": "Buford",
"state": "GA",
"zip": "30519",
"region": "Southeast",
"district": "Atlanta East",
"floor": "1st floor",
"contact_phone": "000-000-0000",
"contact_email": "menswearhouse@macys.com",
"phone": "678-546-4300",
"lat": "34.1100",
"lon": "-83.9900",
"event_status": "0"
},
{
"event_type": "3",
"event_id": "4120",
"store_id": "810",
"date": "03/23/2016",
"start_time": "19:00",
"end_time": "21:00",
"store_name": "Orlando Millenia",
"address1": "4298 MILLENIA BLVD.ORLANDO",
"address2": "",
"city": "Orlando",
"state": "FL",
"zip": "32839",
"region": "Southeast",
"district": "Northern Florida",
"floor": "1st floor",
"contact_phone": "000-000-0000",
"contact_email": "menswearhouse@macys.com",
"phone": "407-264-2300",
"lat": "28.5000",
"lon": "-81.3700",
"event_status": "0"
},
{
"event_type": "3",
"event_id": "4121",
"store_id": "304",
"date": "03/23/2016",
"start_time": "19:00",
"end_time": "21:00",
"store_name": "Lakeside",
"address1": "14200 Lakeside Circle",
"address2": "",
"city": "Sterling Heights",
"state": "MI",
"zip": "48313",
"region": "North",
"district": "Detroit",
"floor": "1st floor",
"contact_phone": "000-000-0000",
"contact_email": "menswearhouse@macys.com",
"phone": "586-566-2800",
"lat": "42.5800",
"lon": "-83.0300",
"event_status": "0"
},
{
"event_type": "3",
"event_id": "4122",
"store_id": "344",
"date": "03/23/2016",
"start_time": "19:00",
"end_time": "21:00",
"store_name": "Cherry Creek Sc",
"address1": "15 SOUTH STEELE STREET",
"address2": "",
"city": "Denver",
"state": "CO",
"zip": "80209",
"region": "South Central",
"district": "Colorado",
"floor": "1st floor",
"contact_phone": "000-000-0000",
"contact_email": "menswearhouse@macys.com",
"phone": "303-390-2200",
"lat": "39.7600",
"lon": "-104.8700",
"event_status": "0"
},
{
"event_type": "3",
"event_id": "4123",
"store_id": "345",
"date": "03/23/2016",
"start_time": "19:00",
"end_time": "21:00",
"store_name": "Park Meadows",
"address1": "8455 PARK MEADOWS CENTER DRIVE",
"address2": "",
"city": "Littleton",
"state": "CO",
"zip": "80124",
"region": "South Central",
"district": "Colorado",
"floor": "1st floor",
"contact_phone": "000-000-0000",
"contact_email": "menswearhouse@macys.com",
"phone": "303-566-6370",
"lat": "39.5900",
"lon": "-105.0100",
"event_status": "0"
},
{
"event_type": "3",
"event_id": "4124",
"store_id": "393",
"date": "03/23/2016",
"start_time": "19:00",
"end_time": "21:00",
"store_name": "Boise Towne Square",
"address1": "370 NORTH MILWAUKEE",
"address2": "",
"city": "Boise",
"state": "ID",
"zip": "83704",
"region": "Northwest",
"district": "Portland",
"floor": "1st floor",
"contact_phone": "000-000-0000",
"contact_email": "menswearhouse@macys.com",
"phone": "208-373-6000",
"lat": "43.6300",
"lon": "-116.2800",
"event_status": "0"
},
{
"event_type": "3",
"event_id": "4125",
"store_id": "503",
"date": "03/23/2016",
"start_time": "19:00",
"end_time": "21:00",
"store_name": "Topanga",
"address1": "21900 VANOWEN STREET",
"address2": "",
"city": "Canoga Park",
"state": "CA",
"zip": "91303",
"region": "Southwest",
"district": "LA Valley",
"floor": "1st floor",
"contact_phone": "000-000-0000",
"contact_email": "menswearhouse@macys.com",
"phone": "818-883-7211",
"lat": "34.1900",
"lon": "-118.6000",
"event_status": "0"
},
{
"event_type": "3",
"event_id": "4126",
"store_id": "523",
"date": "03/23/2016",
"start_time": "19:00",
"end_time": "21:00",
"store_name": "South Coast Plaza",
"address1": "3333 S. BRISTOL ST",
"address2": "",
"city": "Costa Mesa",
"state": "CA",
"zip": "92626",
"region": "Southwest",
"district": "Orange county",
"floor": "1st floor",
"contact_phone": "000-000-0000",
"contact_email": "menswearhouse@macys.com",
"phone": "714-556-0611",
"lat": "33.6700",
"lon": "-117.9000",
"event_status": "0"
},
{
"event_type": "3",
"event_id": "4127",
"store_id": "524",
"date": "03/23/2016",
"start_time": "19:00",
"end_time": "21:00",
"store_name": "Brea",
"address1": "200 BREA MALL",
"address2": "",
"city": "Brea",
"state": "CA",
"zip": "92821",
"region": "Southwest",
"district": "Orange county",
"floor": "1st floor",
"contact_phone": "000-000-0000",
"contact_email": "menswearhouse@macys.com",
"phone": "714-990-1400",
"lat": "33.9200",
"lon": "-117.8600",
"event_status": "0"
},
{
"event_type": "3",
"event_id": "4128",
"store_id": "667",
"date": "03/23/2016",
"start_time": "19:00",
"end_time": "21:00",
"store_name": "Stonebriar Centre",
"address1": "2609 Preston Road",
"address2": "",
"city": "Frisco",
"state": "TX",
"zip": "75034",
"region": "South Central",
"district": "Dallas",
"floor": "1st floor",
"contact_phone": "000-000-0000",
"contact_email": "menswearhouse@macys.com",
"phone": "972-731-3600",
"lat": "33.1400",
"lon": "-96.8100",
"event_status": "0"
},
{
"event_type": "3",
"event_id": "4129",
"store_id": "34",
"date": "03/23/2016",
"start_time": "19:00",
"end_time": "21:00",
"store_name": "Northshore",
"address1": "ANDOVER STREET - RT. 114",
"address2": "North Shore Mall",
"city": "Peabody",
"state": "MA",
"zip": "01960",
"region": "Northeast",
"district": "New England North",
"floor": "1st floor",
"contact_phone": "000-000-0000",
"contact_email": "menswearhouse@macys.com",
"phone": "978-531-3800",
"lat": "42.5300",
"lon": "-70.9700",
"event_status": "0"
},
{
"event_type": "3",
"event_id": "4130",
"store_id": "207",
"date": "03/23/2016",
"start_time": "19:00",
"end_time": "21:00",
"store_name": "Providence Place",
"address1": "7 PROVIDENCE PLACE",
"address2": "",
"city": "Providence",
"state": "RI",
"zip": "02903",
"region": "Northeast",
"district": "New England South",
"floor": "1st floor",
"contact_phone": "000-000-0000",
"contact_email": "menswearhouse@macys.com",
"phone": "401-351-9900",
"lat": "41.8200",
"lon": "-71.4100",
"event_status": "0"
},
{
"event_type": "3",
"event_id": "4131",
"store_id": "730",
"date": "03/23/2016",
"start_time": "19:00",
"end_time": "21:00",
"store_name": "Lenox Square",
"address1": "3393 PEACHTREE ROAD NE",
"address2": "",
"city": "Atlanta",
"state": "GA",
"zip": "30326",
"region": "Southeast",
"district": "Atlanta East",
"floor": "1st floor",
"contact_phone": "000-000-0000",
"contact_email": "menswearhouse@macys.com",
"phone": "404-231-2800",
"lat": "33.8400",
"lon": "-84.3500",
"event_status": "0"
},
{
"event_type": "3",
"event_id": "4132",
"store_id": "743",
"date": "03/23/2016",
"start_time": "19:00",
"end_time": "21:00",
"store_name": "Town Center At Cobb",
"address1": "400 ERNEST BARRETT PARKWAY",
"address2": "Suite 300",
"city": "Kennesaw",
"state": "GA",
"zip": "30144",
"region": "Southeast",
"district": "Atlanta West",
"floor": "1st floor",
"contact_phone": "000-000-0000",
"contact_email": "menswearhouse@macys.com",
"phone": "770-423-2600",
"lat": "34.0200",
"lon": "-84.6100",
"event_status": "0"
},
{
"event_type": "3",
"event_id": "4133",
"store_id": "797",
"date": "03/23/2016",
"start_time": "19:00",
"end_time": "21:00",
"store_name": "Green Hills",
"address1": "3813 HILLSBORO PIKE",
"address2": "",
"city": "Nashville",
"state": "TN",
"zip": "37215",
"region": "Midwest",
"district": "Tennessee",
"floor": "1st floor",
"contact_phone": "000-000-0000",
"contact_email": "menswearhouse@macys.com",
"phone": "615-383-3300",
"lat": "36.1700",
"lon": "-86.7800",
"event_status": "0"
},
{
"event_type": "3",
"event_id": "4134",
"store_id": "830",
"date": "03/23/2016",
"start_time": "19:00",
"end_time": "21:00",
"store_name": "West Shore Plaza",
"address1": "298 WESTSHORE PLAZA",
"address2": "",
"city": "Tampa",
"state": "FL",
"zip": "33609",
"region": "Southeast",
"district": "Tampa",
"floor": "1st floor",
"contact_phone": "000-000-0000",
"contact_email": "menswearhouse@macys.com",
"phone": "813-286-5300",
"lat": "27.9500",
"lon": "-82.4800",
"event_status": "0"
},
{
"event_type": "3",
"event_id": "4135",
"store_id": "215",
"date": "03/23/2016",
"start_time": "19:00",
"end_time": "21:00",
"store_name": "State Street",
"address1": "111 North State Street",
"address2": "",
"city": "Chicago",
"state": "IL",
"zip": "60602",
"region": "North",
"district": "Chicago South",
"floor": "1st floor",
"contact_phone": "000-000-0000",
"contact_email": "menswearhouse@macys.com",
"phone": "312-781-1000",
"lat": "41.8300",
"lon": "-87.6800",
"event_status": "0"
},
{
"event_type": "3",
"event_id": "4136",
"store_id": "370",
"date": "03/23/2016",
"start_time": "19:00",
"end_time": "21:00",
"store_name": "Alderwood",
"address1": "18700 ALDERWOOD MALL BLVD.",
"address2": "",
"city": "Lynnwood",
"state": "WA",
"zip": "98037",
"region": "Northwest",
"district": "North Seattle",
"floor": "1st floor",
"contact_phone": "000-000-0000",
"contact_email": "menswearhouse@macys.com",
"phone": "425-712-6000",
"lat": "47.8500",
"lon": "-122.2800",
"event_status": "0"
},
{
"event_type": "3",
"event_id": "4137",
"store_id": "381",
"date": "03/23/2016",
"start_time": "19:00",
"end_time": "21:00",
"store_name": "Clackamas Town Center",
"address1": "12100 S.E. 82ND AVENUE",
"address2": "",
"city": "Portland",
"state": "OR",
"zip": "97086",
"region": "Northwest",
"district": "Oregon",
"floor": "1st floor",
"contact_phone": "000-000-0000",
"contact_email": "menswearhouse@macys.com",
"phone": "503-653-8811",
"lat": "45.4400",
"lon": "-122.5200",
"event_status": "0"
},
{
"event_type": "3",
"event_id": "4138",
"store_id": "428",
"date": "03/23/2016",
"start_time": "19:00",
"end_time": "21:00",
"store_name": "San Francisco Union Square",
"address1": "170 O'FARRELL ST",
"address2": "",
"city": "San Francisco",
"state": "CA",
"zip": "94102",
"region": "Northwest",
"district": "San Francisco",
"floor": "1st floor",
"contact_phone": "000-000-0000",
"contact_email": "menswearhouse@macys.com",
"phone": "415-397-3333",
"lat": "37.7700",
"lon": "-122.4100",
"event_status": "0"
},
{
"event_type": "3",
"event_id": "4139",
"store_id": "433",
"date": "03/23/2016",
"start_time": "19:00",
"end_time": "21:00",
"store_name": "Southcenter",
"address1": "500 SOUTHCENTER MALL",
"address2": "",
"city": "Tukwila",
"state": "WA",
"zip": "98188",
"region": "Northwest",
"district": "South Seattle",
"floor": "1st floor",
"contact_phone": "000-000-0000",
"contact_email": "menswearhouse@macys.com",
"phone": "425-656-6000",
"lat": "47.4400",
"lon": "-122.2800",
"event_status": "0"
},
{
"event_type": "3",
"event_id": "4140",
"store_id": "535",
"date": "03/23/2016",
"start_time": "19:00",
"end_time": "21:00",
"store_name": "Temecula Promenade",
"address1": "40780 Winchester Road",
"address2": "",
"city": "Temecula",
"state": "CA",
"zip": "92591",
"region": "Southwest",
"district": "Riverside",
"floor": "1st floor",
"contact_phone": "000-000-0000",
"contact_email": "menswearhouse@macys.com",
"phone": "951-541-3333",
"lat": "33.5300",
"lon": "-117.1000",
"event_status": "0"
},
{
"event_type": "3",
"event_id": "4141",
"store_id": "643",
"date": "03/23/2016",
"start_time": "19:00",
"end_time": "21:00",
"store_name": "St. Louis Galleria",
"address1": "1150 ST. LOUIS GALLERIA",
"address2": "",
"city": "St. Louis",
"state": "MO",
"zip": "63117",
"region": "North",
"district": "St.Louis North",
"floor": "1st floor",
"contact_phone": "000-000-0000",
"contact_email": "menswearhouse@macys.com",
"phone": "314-726-1810",
"lat": "38.6300",
"lon": "-90.2400",
"event_status": "0"
},
{
"event_type": "3",
"event_id": "4142",
"store_id": "652",
"date": "03/23/2016",
"start_time": "19:00",
"end_time": "21:00",
"store_name": "West County",
"address1": "#2 WEST COUNTY CENTER",
"address2": "",
"city": "St. Louis",
"state": "MO",
"zip": "63131",
"region": "North",
"district": "St.Louis South",
"floor": "1st floor",
"contact_phone": "000-000-0000",
"contact_email": "menswearhouse@macys.com",
"phone": "314-966-0017",
"lat": "38.6300",
"lon": "-90.2400",
"event_status": "0"
},
{
"event_type": "3",
"event_id": "4143",
"store_id": "90",
"date": "03/23/2016",
"start_time": "19:00",
"end_time": "21:00",
"store_name": "King Of Prussia (The Court)",
"address1": "680 West DeKalb Pike",
"address2": "The Court of King of Prussia",
"city": "King of Prussia",
"state": "PA",
"zip": "19406",
"region": "Mid-Atlantic",
"district": "Philadelphia",
"floor": "1st floor",
"contact_phone": "000-000-0000",
"contact_email": "menswearhouse@macys.com",
"phone": "610-337-9350",
"lat": "40.0900",
"lon": "-75.3800",
"event_status": "0"
},
{
"event_type": "3",
"event_id": "4144",
"store_id": "562",
"date": "03/23/2016",
"start_time": "19:00",
"end_time": "21:00",
"store_name": "Oxmoor Center",
"address1": "7900 SHELBYVILLE ROAD",
"address2": "",
"city": "Louisville",
"state": "KY",
"zip": "40222",
"region": "Midwest",
"district": "Cincinnati",
"floor": "1st floor",
"contact_phone": "000-000-0000",
"contact_email": "menswearhouse@macys.com",
"phone": "502-423-3000",
"lat": "38.2200",
"lon": "-85.7400",
"event_status": "0"
},
{
"event_type": "3",
"event_id": "4145",
"store_id": "782",
"date": "03/23/2016",
"start_time": "19:00",
"end_time": "21:00",
"store_name": "Crabtree Valley",
"address1": "4325 GLENWOOD AVENUE",
"address2": "",
"city": "Raleigh",
"state": "NC",
"zip": "27612",
"region": "Southeast",
"district": "Carolinas",
"floor": "1st floor",
"contact_phone": "000-000-0000",
"contact_email": "menswearhouse@macys.com",
"phone": "919-510-8700",
"lat": "35.8200",
"lon": "-78.6500",
"event_status": "0"
},
{
"event_type": "3",
"event_id": "4146",
"store_id": "787",
"date": "03/23/2016",
"start_time": "19:00",
"end_time": "21:00",
"store_name": "Southpark",
"address1": "4400 SHARON ROAD",
"address2": "",
"city": "Charlotte",
"state": "NC",
"zip": "28211",
"region": "Southeast",
"district": "Carolinas",
"floor": "1st floor",
"contact_phone": "000-000-0000",
"contact_email": "menswearhouse@macys.com",
"phone": "704-365-1000",
"lat": "35.1900",
"lon": "-80.8300",
"event_status": "0"
},
{
"event_type": "3",
"event_id": "4147",
"store_id": "249",
"date": "03/23/2016",
"start_time": "19:00",
"end_time": "21:00",
"store_name": "Lynnhaven",
"address1": "701 SOUTH LYNNHAVEN PARKWAY",
"address2": "",
"city": "Virginia Beach",
"state": "VA",
"zip": "23452",
"region": "Mid-Atlantic",
"district": "Richmond",
"floor": "1st floor",
"contact_phone": "000-000-0000",
"contact_email": "menswearhouse@macys.com",
"phone": "757-306-0666",
"lat": "36.7300",
"lon": "-76.0400",
"event_status": "0"
},
{
"event_type": "3",
"event_id": "4148",
"store_id": "307",
"date": "03/23/2016",
"start_time": "19:00",
"end_time": "21:00",
"store_name": "Woodland",
"address1": "3165 28TH STREET",
"address2": "",
"city": "Grand Rapids",
"state": "MI",
"zip": "49512",
"region": "North",
"district": "Michigan",
"floor": "1st floor",
"contact_phone": "000-000-0000",
"contact_email": "menswearhouse@macys.com",
"phone": "616-940-2100",
"lat": "42.9600",
"lon": "-85.6500",
"event_status": "0"
},
{
"event_type": "3",
"event_id": "4149",
"store_id": "482",
"date": "03/23/2016",
"start_time": "19:00",
"end_time": "21:00",
"store_name": "Santa Anita",
"address1": "400 S. BALDWIN AVE",
"address2": "",
"city": "Santa Anita",
"state": "CA",
"zip": "91007",
"region": "Southwest",
"district": "LA East",
"floor": "1st floor",
"contact_phone": "000-000-0000",
"contact_email": "menswearhouse@macys.com",
"phone": "626-445-5711",
"lat": "34.1200",
"lon": "-118.0500",
"event_status": "0"
},
{
"event_type": "3",
"event_id": "4150",
"store_id": "532",
"date": "03/23/2016",
"start_time": "19:00",
"end_time": "21:00",
"store_name": "Las Vegas Fashion Show",
"address1": "3200 LAS VEGAS BLVD. S.",
"address2": "",
"city": "Las Vegas",
"state": "NV",
"zip": "89109",
"region": "Southwest",
"district": "Riverside",
"floor": "1st floor",
"contact_phone": "000-000-0000",
"contact_email": "menswearhouse@macys.com",
"phone": "702-731-5111",
"lat": "36.1100",
"lon": "-115.1200",
"event_status": "0"
},
{
"event_type": "3",
"event_id": "4151",
"store_id": "533",
"date": "03/23/2016",
"start_time": "19:00",
"end_time": "21:00",
"store_name": "Victoria Gardens",
"address1": "7855 KEW AVE",
"address2": "",
"city": "Rancho Cucamonga",
"state": "CA",
"zip": "91739",
"region": "Southwest",
"district": "Riverside",
"floor": "1st floor",
"contact_phone": "000-000-0000",
"contact_email": "menswearhouse@macys.com",
"phone": "909-646-3333",
"lat": "34.1400",
"lon": "-117.5100",
"event_status": "0"
},
{
"event_type": "3",
"event_id": "4152",
"store_id": "560",
"date": "03/23/2016",
"start_time": "19:00",
"end_time": "21:00",
"store_name": "Kenwood Towne Centre",
"address1": "7875 MONTGOMERY ROAD",
"address2": "Kenwood Towne Centre",
"city": "Cincinnati",
"state": "OH",
"zip": "45236",
"region": "Midwest",
"district": "Cincinnati",
"floor": "1st floor",
"contact_phone": "000-000-0000",
"contact_email": "menswearhouse@macys.com",
"phone": "513-247-6400",
"lat": "39.0900",
"lon": "-84.5100",
"event_status": "0"
},
{
"event_type": "3",
"event_id": "4153",
"store_id": "690",
"date": "03/23/2016",
"start_time": "19:00",
"end_time": "21:00",
"store_name": "Mall Of Louisiana",
"address1": "6301 BLUEBONNET BLVD.",
"address2": "",
"city": "Baton Rouge",
"state": "LA",
"zip": "70836",
"region": "South Central",
"district": "Houston-Louisiana",
"floor": "1st floor",
"contact_phone": "000-000-0000",
"contact_email": "menswearhouse@macys.com",
"phone": "225-757-7000",
"lat": "30.4400",
"lon": "-91.1200",
"event_status": "0"
},
{
"event_type": "3",
"event_id": "4154",
"store_id": "693",
"date": "03/23/2016",
"start_time": "19:00",
"end_time": "21:00",
"store_name": "Lakeside Sc",
"address1": "3301 Veterans Memorial Blvd",
"address2": "",
"city": "Metarie",
"state": "LA",
"zip": "70002",
"region": "South Central",
"district": "Houston-Louisiana",
"floor": "1st floor",
"contact_phone": "000-000-0000",
"contact_email": "menswearhouse@macys.com",
"phone": "504-484-4600",
"lat": "29.9900",
"lon": "-90.1700",
"event_status": "0"
},
{
"event_type": "3",
"event_id": "4155",
"store_id": "702",
"date": "03/23/2016",
"start_time": "19:00",
"end_time": "21:00",
"store_name": "North Star",
"address1": "7400 SAN PEDRO AVE. #200",
"address2": "",
"city": "San Antonio",
"state": "TX",
"zip": "78216",
"region": "South Central",
"district": "San Antonio-Austin",
"floor": "1st floor",
"contact_phone": "000-000-0000",
"contact_email": "menswearhouse@macys.com",
"phone": "210-340-4200",
"lat": "29.4500",
"lon": "-98.5000",
"event_status": "0"
},
{
"event_type": "3",
"event_id": "4156",
"store_id": "4",
"date": "03/23/2016",
"start_time": "19:00",
"end_time": "21:00",
"store_name": "Westfarms",
"address1": "100 Westfarms Mall",
"address2": "",
"city": "Farmington",
"state": "CT",
"zip": "06032",
"region": "Northeast",
"district": "Connecticut",
"floor": "1st floor",
"contact_phone": "000-000-0000",
"contact_email": "menswearhouse@macys.com",
"phone": "860-561-3030",
"lat": "41.7100",
"lon": "-72.8300",
"event_status": "0"
},
{
"event_type": "3",
"event_id": "4157",
"store_id": "9",
"date": "03/23/2016",
"start_time": "19:00",
"end_time": "21:00",
"store_name": "Woodbridge Center",
"address1": "237 Woodbridge Center Drive",
"address2": "",
"city": "Woodbridge",
"state": "NJ",
"zip": "07095",
"region": "Mid-Atlantic",
"district": "NJ Central",
"floor": "1st floor",
"contact_phone": "000-000-0000",
"contact_email": "menswearhouse@macys.com",
"phone": "732-636-2450",
"lat": "40.5500",
"lon": "-74.2800",
"event_status": "0"
},
{
"event_type": "3",
"event_id": "4158",
"store_id": "28",
"date": "03/23/2016",
"start_time": "19:00",
"end_time": "21:00",
"store_name": "Danbury Fair",
"address1": "7 Backus Avenue",
"address2": "Danbury Fair Mall",
"city": "Danbury",
"state": "CT",
"zip": "06813",
"region": "Northeast",
"district": "NY South",
"floor": "1st floor",
"contact_phone": "000-000-0000",
"contact_email": "menswearhouse@macys.com",
"phone": "203-731-3500",
"lat": "41.4000",
"lon": "-73.4700",
"event_status": "0"
},
{
"event_type": "3",
"event_id": "4159",
"store_id": "45",
"date": "03/23/2016",
"start_time": "19:00",
"end_time": "21:00",
"store_name": "Mall In Columbia",
"address1": "10300 LITTLE PATUXENT PKWY",
"address2": "",
"city": "Columbia",
"state": "MD",
"zip": "21044",
"region": "Mid-Atlantic",
"district": "DelMarVa North",
"floor": "1st floor",
"contact_phone": "000-000-0000",
"contact_email": "menswearhouse@macys.com",
"phone": "410-997-3000",
"lat": "39.2000",
"lon": "-76.8500",
"event_status": "0"
},
{
"event_type": "3",
"event_id": "4160",
"store_id": "178",
"date": "03/23/2016",
"start_time": "19:00",
"end_time": "21:00",
"store_name": "Holyoke Mall At Ingleside",
"address1": "400 Whitney Avenue",
"address2": "P.O. Box 10117",
"city": "Holyoke",
"state": "MA",
"zip": "01040",
"region": "Northeast",
"district": "Connecticut",
"floor": "1st floor",
"contact_phone": "000-000-0000",
"contact_email": "menswearhouse@macys.com",
"phone": "413-538-7360",
"lat": "42.2100",
"lon": "-72.6400",
"event_status": "0"
},
{
"event_type": "3",
"event_id": "4161",
"store_id": "731",
"date": "03/23/2016",
"start_time": "19:00",
"end_time": "21:00",
"store_name": "Perimeter",
"address1": "4300 ASHFORD-DUNWOODY ROAD",
"address2": "",
"city": "Atlanta",
"state": "GA",
"zip": "30346",
"region": "Southeast",
"district": "Atlanta East",
"floor": "1st floor",
"contact_phone": "000-000-0000",
"contact_email": "menswearhouse@macys.com",
"phone": "770-396-2800",
"lat": "33.9200",
"lon": "-84.3400",
"event_status": "0"
},
{
"event_type": "3",
"event_id": "4162",
"store_id": "732",
"date": "03/23/2016",
"start_time": "19:00",
"end_time": "21:00",
"store_name": "Northpoint",
"address1": "5000 NORTH POINT CIRCLE",
"address2": "",
"city": "Alpharetta",
"state": "GA",
"zip": "30022",
"region": "Southeast",
"district": "Atlanta East",
"floor": "1st floor",
"contact_phone": "000-000-0000",
"contact_email": "menswearhouse@macys.com",
"phone": "770-410-2600",
"lat": "34.0600",
"lon": "-84.2700",
"event_status": "0"
},
{
"event_type": "3",
"event_id": "4163",
"store_id": "228",
"date": "03/23/2016",
"start_time": "19:00",
"end_time": "21:00",
"store_name": "Hilldale",
"address1": "702 NORTH MIDVALE BLVD.",
"address2": "",
"city": "Madison",
"state": "WI",
"zip": "53705",
"region": "North",
"district": "Chicago North",
"floor": "1st floor",
"contact_phone": "000-000-0000",
"contact_email": "menswearhouse@macys.com",
"phone": "608-232-2400",
"lat": "43.0700",
"lon": "-89.3800",
"event_status": "0"
},
{
"event_type": "3",
"event_id": "4164",
"store_id": "239",
"date": "03/23/2016",
"start_time": "19:00",
"end_time": "21:00",
"store_name": "Mall of America",
"address1": "4000 SW COURT",
"address2": "",
"city": "Bloomington",
"state": "MN",
"zip": "55425",
"region": "North",
"district": "Minneapolis West",
"floor": "1st floor",
"contact_phone": "000-000-0000",
"contact_email": "menswearhouse@macys.com",
"phone": "952-888-3333",
"lat": "44.9600",
"lon": "-93.2600",
"event_status": "0"
},
{
"event_type": "3",
"event_id": "4165",
"store_id": "323",
"date": "03/23/2016",
"start_time": "19:00",
"end_time": "21:00",
"store_name": "Concord Sunvalley",
"address1": "341 SUN VALLEY MALL",
"address2": "",
"city": "Concord",
"state": "CA",
"zip": "94520",
"region": "Northwest",
"district": "Bay Area North",
"floor": "1st floor",
"contact_phone": "000-000-0000",
"contact_email": "menswearhouse@macys.com",
"phone": "925-689-3333",
"lat": "38.0000",
"lon": "-122.0300",
"event_status": "0"
},
{
"event_type": "3",
"event_id": "4166",
"store_id": "453",
"date": "03/23/2016",
"start_time": "19:00",
"end_time": "21:00",
"store_name": "Chandler Fashion Center",
"address1": "3107 W. CHANDLER BLVD.",
"address2": "",
"city": "Chandler",
"state": "AZ",
"zip": "85226",
"region": "South Central",
"district": "Arizona",
"floor": "1st floor",
"contact_phone": "000-000-0000",
"contact_email": "menswearhouse@macys.com",
"phone": "480-821-8611",
"lat": "33.2700",
"lon": "-111.9400",
"event_status": "0"
},
{
"event_type": "3",
"event_id": "4167",
"store_id": "13",
"date": "03/23/2016",
"start_time": "19:00",
"end_time": "21:00",
"store_name": "Smith Haven",
"address1": "2 Smith Haven Mall",
"address2": "",
"city": "Lake Grove",
"state": "NY",
"zip": "11755",
"region": "Northeast",
"district": "Long Island East",
"floor": "1st floor",
"contact_phone": "000-000-0000",
"contact_email": "menswearhouse@macys.com",
"phone": "631-724-4900",
"lat": "40.8500",
"lon": "-73.1100",
"event_status": "0"
},
{
"event_type": "3",
"event_id": "4168",
"store_id": "47",
"date": "03/23/2016",
"start_time": "19:00",
"end_time": "21:00",
"store_name": "Annapolis",
"address1": "1295 Annapolis Mall",
"address2": "",
"city": "Annapolis",
"state": "MD",
"zip": "21401",
"region": "Mid-Atlantic",
"district": "DelMarVa Central",
"floor": "1st floor",
"contact_phone": "000-000-0000",
"contact_email": "menswearhouse@macys.com",
"phone": "410-266-0800",
"lat": "38.9700",
"lon": "-76.5000",
"event_status": "0"
},
{
"event_type": "3",
"event_id": "4169",
"store_id": "54",
"date": "03/23/2016",
"start_time": "19:00",
"end_time": "21:00",
"store_name": "Willow Grove Park",
"address1": "2501 WEST MOORELAND ROAD",
"address2": "",
"city": "Willow Grove",
"state": "PA",
"zip": "19090",
"region": "Mid-Atlantic",
"district": "Philadelphia",
"floor": "1st floor",
"contact_phone": "000-000-0000",
"contact_email": "menswearhouse@macys.com",
"phone": "215-658-4700",
"lat": "40.1400",
"lon": "-75.1100",
"event_status": "0"
},
{
"event_type": "3",
"event_id": "4170",
"store_id": "70",
"date": "03/23/2016",
"start_time": "19:00",
"end_time": "21:00",
"store_name": "Lehigh Valley",
"address1": "300 Lehigh Valley Mall",
"address2": "",
"city": "Whitehall",
"state": "PA",
"zip": "18052",
"region": "Mid-Atlantic",
"district": "Philadelphia",
"floor": "1st floor",
"contact_phone": "000-000-0000",
"contact_email": "menswearhouse@macys.com",
"phone": "610-264-8711",
"lat": "40.6300",
"lon": "-75.4800",
"event_status": "0"
},
{
"event_type": "3",
"event_id": "4171",
"store_id": "83",
"date": "03/23/2016",
"start_time": "19:00",
"end_time": "21:00",
"store_name": "Colonie Center",
"address1": "WOLF ROAD COLONIE SHOPPING CENTER",
"address2": "200 Colonie Center",
"city": "Albany",
"state": "NY",
"zip": "12205",
"region": "Northeast",
"district": "NY East",
"floor": "1st floor",
"contact_phone": "000-000-0000",
"contact_email": "menswearhouse@macys.com",
"phone": "518-459-1950",
"lat": "42.6600",
"lon": "-73.7900",
"event_status": "0"
},
{
"event_type": "3",
"event_id": "4172",
"store_id": "95",
"date": "03/23/2016",
"start_time": "19:00",
"end_time": "21:00",
"store_name": "Fashion Ctr At Pentagon City",
"address1": "1000 S. HAYES STREET",
"address2": "",
"city": "Arlington",
"state": "VA",
"zip": "22202",
"region": "Mid-Atlantic",
"district": "DelMarVa South",
"floor": "1st floor",
"contact_phone": "000-000-0000",
"contact_email": "menswearhouse@macys.com",
"phone": "703-418-4488",
"lat": "38.8700",
"lon": "-77.1000",
"event_status": "0"
},
{
"event_type": "3",
"event_id": "4173",
"store_id": "206",
"date": "03/23/2016",
"start_time": "19:00",
"end_time": "21:00",
"store_name": "Palisades Center",
"address1": "1920 PALISADES CENTER DR",
"address2": "",
"city": "West Nyack",
"state": "NY",
"zip": "10994",
"region": "Northeast",
"district": "NY South",
"floor": "1st floor",
"contact_phone": "000-000-0000",
"contact_email": "menswearhouse@macys.com",
"phone": "845-358-7990",
"lat": "41.0900",
"lon": "-73.9600",
"event_status": "0"
},
{
"event_type": "3",
"event_id": "4174",
"store_id": "781",
"date": "03/23/2016",
"start_time": "19:00",
"end_time": "21:00",
"store_name": "Haywood",
"address1": "700 HAYWOOD ROAD",
"address2": "",
"city": "Greenville",
"state": "SC",
"zip": "29607",
"region": "Southeast",
"district": "Carolinas",
"floor": "1st floor",
"contact_phone": "000-000-0000",
"contact_email": "menswearhouse@macys.com",
"phone": "864-297-2020",
"lat": "34.8300",
"lon": "-82.3700",
"event_status": "0"
},
{
"event_type": "3",
"event_id": "4175",
"store_id": "783",
"date": "03/23/2016",
"start_time": "19:00",
"end_time": "21:00",
"store_name": "Streets At Southpoint",
"address1": "6910 FAYETTEVILLE ROAD",
"address2": "",
"city": "Durham",
"state": "NC",
"zip": "27713",
"region": "Southeast",
"district": "Carolinas",
"floor": "1st floor",
"contact_phone": "000-000-0000",
"contact_email": "menswearhouse@macys.com",
"phone": "919-361-7039",
"lat": "35.9800",
"lon": "-78.9100",
"event_status": "0"
},
{
"event_type": "3",
"event_id": "4176",
"store_id": "368",
"date": "03/23/2016",
"start_time": "19:00",
"end_time": "21:00",
"store_name": "Bellevue Square",
"address1": "400 BELLEVUE SQUARE",
"address2": "",
"city": "Bellevue",
"state": "WA",
"zip": "98004",
"region": "Northwest",
"district": "North Seattle",
"floor": "1st floor",
"contact_phone": "000-000-0000",
"contact_email": "menswearhouse@macys.com",
"phone": "425-688-6000",
"lat": "47.6100",
"lon": "-122.2100",
"event_status": "0"
},
{
"event_type": "3",
"event_id": "4177",
"store_id": "371",
"date": "03/23/2016",
"start_time": "19:00",
"end_time": "21:00",
"store_name": "Seattle Northgate",
"address1": "602 NORTHGATE SHOPPING CENTER",
"address2": "",
"city": "Seattle",
"state": "WA",
"zip": "98125",
"region": "Northwest",
"district": "North Seattle",
"floor": "1st floor",
"contact_phone": "000-000-0000",
"contact_email": "menswearhouse@macys.com",
"phone": "206-440-6000",
"lat": "47.7100",
"lon": "-122.3000",
"event_status": "0"
},
{
"event_type": "3",
"event_id": "4178",
"store_id": "392",
"date": "03/23/2016",
"start_time": "19:00",
"end_time": "21:00",
"store_name": "Washington Square",
"address1": "9300 S.W. WASHINGTON SQUARE RD.",
"address2": "",
"city": "Portland",
"state": "OR",
"zip": "97223",
"region": "Northwest",
"district": "Portland",
"floor": "1st floor",
"contact_phone": "000-000-0000",
"contact_email": "menswearhouse@macys.com",
"phone": "503-620-3311",
"lat": "45.4400",
"lon": "-122.7600",
"event_status": "0"
},
{
"event_type": "3",
"event_id": "4179",
"store_id": "644",
"date": "03/23/2016",
"start_time": "19:00",
"end_time": "21:00",
"store_name": "Chesterfield",
"address1": "49 CHESTERFIELD MALL",
"address2": "",
"city": "Chesterfield",
"state": "MO",
"zip": "63017",
"region": "North",
"district": "St.Louis North",
"floor": "1st floor",
"contact_phone": "000-000-0000",
"contact_email": "menswearhouse@macys.com",
"phone": "636-532-3800",
"lat": "38.6500",
"lon": "-90.5800",
"event_status": "0"
},
{
"event_type": "3",
"event_id": "4180",
"store_id": "665",
"date": "03/23/2016",
"start_time": "19:00",
"end_time": "21:00",
"store_name": "Northpark Center",
"address1": "8687 NORTH CENTRAL EXPRESSWAY",
"address2": "",
"city": "Dallas",
"state": "TX",
"zip": "75225",
"region": "South Central",
"district": "Dallas",
"floor": "1st floor",
"contact_phone": "000-000-0000",
"contact_email": "menswearhouse@macys.com",
"phone": "469-232-3600",
"lat": "32.7900",
"lon": "-96.7600",
"event_status": "0"
},
{
"event_type": "3",
"event_id": "4181",
"store_id": "666",
"date": "03/23/2016",
"start_time": "19:00",
"end_time": "21:00",
"store_name": "Galleria",
"address1": "13375 NOEL ROAD",
"address2": "",
"city": "Dallas",
"state": "TX",
"zip": "75240",
"region": "South Central",
"district": "Dallas",
"floor": "1st floor",
"contact_phone": "000-000-0000",
"contact_email": "menswearhouse@macys.com",
"phone": "214-295-1300",
"lat": "32.7900",
"lon": "-96.7600",
"event_status": "0"
},
{
"event_type": "3",
"event_id": "4182",
"store_id": "676",
"date": "03/23/2016",
"start_time": "19:00",
"end_time": "21:00",
"store_name": "Parks At Arlington",
"address1": "3841 SOUTH COOPER STREET",
"address2": "",
"city": "Arlington",
"state": "TX",
"zip": "76015",
"region": "South Central",
"district": "Fort Worth-Oklahoma",
"floor": "1st floor",
"contact_phone": "000-000-0000",
"contact_email": "menswearhouse@macys.com",
"phone": "817-472-4500",
"lat": "32.6900",
"lon": "-97.1200",
"event_status": "0"
},
{
"event_type": "3",
"event_id": "4183",
"store_id": "704",
"date": "03/23/2016",
"start_time": "19:00",
"end_time": "21:00",
"store_name": "Barton Creek Square",
"address1": "2901 CAPITOL OF TEXAS HIGHWAY",
"address2": "",
"city": "Austin",
"state": "TX",
"zip": "78746",
"region": "South Central",
"district": "San Antonio-Austin",
"floor": "1st floor",
"contact_phone": "000-000-0000",
"contact_email": "menswearhouse@macys.com",
"phone": "512-329-2300",
"lat": "30.2600",
"lon": "-97.7400",
"event_status": "0"
},
{
"event_type": "3",
"event_id": "4184",
"store_id": "710",
"date": "03/23/2016",
"start_time": "19:00",
"end_time": "21:00",
"store_name": "The Domain",
"address1": "3311 ESPERANZA CROSSING",
"address2": "",
"city": "Austin",
"state": "TX",
"zip": "78758",
"region": "South Central",
"district": "San Antonio-Austin",
"floor": "1st floor",
"contact_phone": "000-000-0000",
"contact_email": "menswearhouse@macys.com",
"phone": "512-490-3300",
"lat": "30.2600",
"lon": "-97.7400",
"event_status": "0"
},
{
"event_type": "3",
"event_id": "4185",
"store_id": "69",
"date": "03/23/2016",
"start_time": "19:00",
"end_time": "21:00",
"store_name": "Towson Town Center",
"address1": "813 Dulaney Valley Road",
"address2": "",
"city": "Towson",
"state": "MD",
"zip": "21204",
"region": "Mid-Atlantic",
"district": "DelMarVa North",
"floor": "1st floor",
"contact_phone": "000-000-0000",
"contact_email": "menswearhouse@macys.com",
"phone": "410-337-3600",
"lat": "39.3900",
"lon": "-76.6200",
"event_status": "0"
},
{
"event_type": "3",
"event_id": "4186",
"store_id": "74",
"date": "03/23/2016",
"start_time": "19:00",
"end_time": "21:00",
"store_name": "Christiana",
"address1": "501 CHRISTIANA MALL",
"address2": "Christiana Mall",
"city": "Newark",
"state": "DE",
"zip": "19702",
"region": "Mid-Atlantic",
"district": "DelMarVa North",
"floor": "1st floor",
"contact_phone": "000-000-0000",
"contact_email": "menswearhouse@macys.com",
"phone": "302-366-5800",
"lat": "39.6700",
"lon": "-75.7500",
"event_status": "0"
},
{
"event_type": "3",
"event_id": "4187",
"store_id": "91",
"date": "03/23/2016",
"start_time": "19:00",
"end_time": "21:00",
"store_name": "White Marsh",
"address1": "8200 Perry hall Blvd.",
"address2": "White Marsh Mall",
"city": "Parkville",
"state": "MD",
"zip": "21236",
"region": "Mid-Atlantic",
"district": "DelMarVa North",
"floor": "1st floor",
"contact_phone": "000-000-0000",
"contact_email": "menswearhouse@macys.com",
"phone": "410-931-2000",
"lat": "39.3800",
"lon": "-76.4800",
"event_status": "0"
},
{
"event_type": "3",
"event_id": "4188",
"store_id": "116",
"date": "03/23/2016",
"start_time": "19:00",
"end_time": "21:00",
"store_name": "Connecticut Post",
"address1": "1201 POST ROAD",
"address2": "",
"city": "Milford",
"state": "CT",
"zip": "06460",
"region": "Northeast",
"district": "Connecticut",
"floor": "1st floor",
"contact_phone": "000-000-0000",
"contact_email": "menswearhouse@macys.com",
"phone": "203-877-9393",
"lat": "41.2200",
"lon": "-73.0600",
"event_status": "0"
},
{
"event_type": "3",
"event_id": "4189",
"store_id": "621",
"date": "03/23/2016",
"start_time": "19:00",
"end_time": "21:00",
"store_name": "South Hills Village",
"address1": "100 SOUTH HILLS VILLAGE",
"address2": "",
"city": "Pittsburgh",
"state": "PA",
"zip": "15241",
"region": "Midwest",
"district": "Pittsburgh North",
"floor": "1st floor",
"contact_phone": "000-000-0000",
"contact_email": "menswearhouse@macys.com",
"phone": "412-854-6800",
"lat": "40.4300",
"lon": "-79.9700",
"event_status": "0"
},
{
"event_type": "3",
"event_id": "4190",
"store_id": "744",
"date": "03/23/2016",
"start_time": "19:00",
"end_time": "21:00",
"store_name": "Cumberland",
"address1": "1300 CUMBERLAND MALL",
"address2": "",
"city": "Atlanta",
"state": "GA",
"zip": "30339",
"region": "Southeast",
"district": "Atlanta West",
"floor": "1st floor",
"contact_phone": "000-000-0000",
"contact_email": "menswearhouse@macys.com",
"phone": "770-434-2600",
"lat": "33.8600",
"lon": "-84.4700",
"event_status": "0"
},
{
"event_type": "3",
"event_id": "4191",
"store_id": "746",
"date": "03/23/2016",
"start_time": "19:00",
"end_time": "21:00",
"store_name": "Brookwood Village",
"address1": "614 BROOKWOOD VILLAGE",
"address2": "",
"city": "Birmingham",
"state": "AL",
"zip": "35209",
"region": "Southeast",
"district": "Atlanta West",
"floor": "1st floor",
"contact_phone": "000-000-0000",
"contact_email": "menswearhouse@macys.com",
"phone": "205-868-2600",
"lat": "33.5200",
"lon": "-86.7900",
"event_status": "0"
},
{
"event_type": "3",
"event_id": "4192",
"store_id": "798",
"date": "03/23/2016",
"start_time": "19:00",
"end_time": "21:00",
"store_name": "Cool Springs Galleria",
"address1": "1790 GALLERIA BLVD.",
"address2": "",
"city": "Franklin",
"state": "TN",
"zip": "37067",
"region": "Midwest",
"district": "Tennessee",
"floor": "1st floor",
"contact_phone": "000-000-0000",
"contact_email": "menswearhouse@macys.com",
"phone": "615-771-2100",
"lat": "35.9200",
"lon": "-86.8400",
"event_status": "0"
},
{
"event_type": "3",
"event_id": "4193",
"store_id": "316",
"date": "03/23/2016",
"start_time": "19:00",
"end_time": "21:00",
"store_name": "The Crossroads",
"address1": "6666 S. WESTNEDGE AVENUE",
"address2": "",
"city": "Portage",
"state": "MI",
"zip": "49002",
"region": "North",
"district": "Michigan",
"floor": "1st floor",
"contact_phone": "000-000-0000",
"contact_email": "menswearhouse@macys.com",
"phone": "269-324-4400",
"lat": "42.2000",
"lon": "-85.5900",
"event_status": "0"
},
{
"event_type": "3",
"event_id": "4194",
"store_id": "584",
"date": "03/23/2016",
"start_time": "19:00",
"end_time": "21:00",
"store_name": "Easton Town Center",
"address1": "4141 EASTON LOOP EAST",
"address2": "",
"city": "Columbus",
"state": "OH",
"zip": "43219",
"region": "Midwest",
"district": "Columbus",
"floor": "1st floor",
"contact_phone": "000-000-0000",
"contact_email": "menswearhouse@macys.com",
"phone": "614-342-2300",
"lat": "39.9800",
"lon": "-82.9800",
"event_status": "0"
},
{
"event_type": "3",
"event_id": "4195",
"store_id": "585",
"date": "03/23/2016",
"start_time": "19:00",
"end_time": "21:00",
"store_name": "Tuttle Crossing",
"address1": "5123 TUTTLE CROSSING BLVD.",
"address2": "",
"city": "Dublin",
"state": "OH",
"zip": "43016",
"region": "Midwest",
"district": "Columbus",
"floor": "1st floor",
"contact_phone": "000-000-0000",
"contact_email": "menswearhouse@macys.com",
"phone": "614-760-1200",
"lat": "40.1100",
"lon": "-83.1300",
"event_status": "0"
},
{
"event_type": "3",
"event_id": "4196",
"store_id": "598",
"date": "03/23/2016",
"start_time": "19:00",
"end_time": "21:00",
"store_name": "Castleton Square",
"address1": "6020 E. 82ND STREET",
"address2": "",
"city": "Indianapolis",
"state": "IN",
"zip": "46250",
"region": "Midwest",
"district": "Indiana",
"floor": "1st floor",
"contact_phone": "000-000-0000",
"contact_email": "menswearhouse@macys.com",
"phone": "317-579-4500",
"lat": "39.7700",
"lon": "-86.1400",
"event_status": "0"
},
{
"event_type": "3",
"event_id": "4197",
"store_id": "705",
"date": "03/23/2016",
"start_time": "19:00",
"end_time": "21:00",
"store_name": "Shops At La Cantera",
"address1": "16401 LA CANTERA PARKWAY",
"address2": "",
"city": "San Antonio",
"state": "TX",
"zip": "78256",
"region": "South Central",
"district": "San Antonio-Austin",
"floor": "1st floor",
"contact_phone": "000-000-0000",
"contact_email": "menswearhouse@macys.com",
"phone": "210-332-4800",
"lat": "29.4500",
"lon": "-98.5000",
"event_status": "0"
},
{
"event_type": "3",
"event_id": "4198",
"store_id": "3",
"date": "03/23/2016",
"start_time": "19:00",
"end_time": "21:00",
"store_name": "Herald Square",
"address1": "151 W. 34TH STREET",
"address2": "",
"city": "New York",
"state": "NY",
"zip": "10001",
"region": "Northeast",
"district": "Herald Square",
"floor": "1st floor",
"contact_phone": "000-000-0000",
"contact_email": "menswearhouse@macys.com",
"phone": "212-695-4400",
"lat": "40.7100",
"lon": "-73.9900",
"event_status": "0"
},
{
"event_type": "3",
"event_id": "4199",
"store_id": "21",
"date": "03/23/2016",
"start_time": "19:00",
"end_time": "21:00",
"store_name": "Plaza Las Americas",
"address1": "525 F. D. Roosevelt Avenue",
"address2": "Plaza Las Americas",
"city": "San Juan",
"state": "PR",
"zip": "00918",
"region": "Southeast",
"district": "Miami South",
"floor": "1st floor",
"contact_phone": "000-000-0000",
"contact_email": "menswearhouse@macys.com",
"phone": "787-296-3970",
"lat": "18.4000",
"lon": "-66.0600",
"event_status": "0"
},
{
"event_type": "3",
"event_id": "4200",
"store_id": "33",
"date": "03/23/2016",
"start_time": "19:00",
"end_time": "21:00",
"store_name": "Montgomery",
"address1": "7125 DEMOCRACY BLVD.",
"address2": "",
"city": "Bethesda",
"state": "MD",
"zip": "20817",
"region": "Mid-Atlantic",
"district": "DelMarVa Central",
"floor": "1st floor",
"contact_phone": "000-000-0000",
"contact_email": "menswearhouse@macys.com",
"phone": "301-469-6800",
"lat": "38.9800",
"lon": "-77.1200",
"event_status": "0"
},
{
"event_type": "3",
"event_id": "4201",
"store_id": "39",
"date": "03/23/2016",
"start_time": "19:00",
"end_time": "21:00",
"store_name": "Warwick",
"address1": "400 Bald Hill Road",
"address2": "Warwick Mall",
"city": "Warwick",
"state": "RI",
"zip": "02886",
"region": "Northeast",
"district": "New England South",
"floor": "1st floor",
"contact_phone": "000-000-0000",
"contact_email": "menswearhouse@macys.com",
"phone": "401-737-3800",
"lat": "41.7000",
"lon": "-71.4200",
"event_status": "0"
},
{
"event_type": "3",
"event_id": "4202",
"store_id": "757",
"date": "03/23/2016",
"start_time": "19:00",
"end_time": "21:00",
"store_name": "Boca Raton Town Center",
"address1": "5700 W. GLADES RD",
"address2": "",
"city": "Boca Raton",
"state": "FL",
"zip": "33431",
"region": "Southeast",
"district": "Ft.Lauderdale-Palm Beach",
"floor": "1st floor",
"contact_phone": "000-000-0000",
"contact_email": "menswearhouse@macys.com",
"phone": "561-393-4400",
"lat": "26.3700",
"lon": "-80.1000",
"event_status": "0"
},
{
"event_type": "3",
"event_id": "4203",
"store_id": "769",
"date": "03/23/2016",
"start_time": "19:00",
"end_time": "21:00",
"store_name": "Aventura",
"address1": "19535 BISCAYNE BLVD. AVENTURA",
"address2": "",
"city": "N. Miami",
"state": "FL",
"zip": "33180",
"region": "Southeast",
"district": "Miami North",
"floor": "1st floor",
"contact_phone": "000-000-0000",
"contact_email": "menswearhouse@macys.com",
"phone": "305-682-3300",
"lat": "25.7700",
"lon": "-80.2000",
"event_status": "0"
},
{
"event_type": "3",
"event_id": "4204",
"store_id": "219",
"date": "03/23/2016",
"start_time": "19:00",
"end_time": "21:00",
"store_name": "Water Tower Place",
"address1": "835 North Michigan Avenue",
"address2": "",
"city": "Chicago",
"state": "IL",
"zip": "60611",
"region": "North",
"district": "Chicago North",
"floor": "1st floor",
"contact_phone": "000-000-0000",
"contact_email": "menswearhouse@macys.com",
"phone": "312-335-7700",
"lat": "41.8300",
"lon": "-87.6800",
"event_status": "0"
},
{
"event_type": "3",
"event_id": "4205",
"store_id": "233",
"date": "03/23/2016",
"start_time": "19:00",
"end_time": "21:00",
"store_name": "Rosedale Center",
"address1": "900 Rosedale Center",
"address2": "",
"city": "Roseville",
"state": "MN",
"zip": "55113",
"region": "North",
"district": "Minneapolis East",
"floor": "1st floor",
"contact_phone": "000-000-0000",
"contact_email": "menswearhouse@macys.com",
"phone": "651-639-6600",
"lat": "44.9400",
"lon": "-93.1000",
"event_status": "0"
},
{
"event_type": "3",
"event_id": "4206",
"store_id": "302",
"date": "03/23/2016",
"start_time": "19:00",
"end_time": "21:00",
"store_name": "Twelve Oaks",
"address1": "27550 Novi Road",
"address2": "Twelve Oaks Mall",
"city": "Novi",
"state": "MI",
"zip": "48377",
"region": "North",
"district": "Detroit",
"floor": "1st floor",
"contact_phone": "000-000-0000",
"contact_email": "menswearhouse@macys.com",
"phone": "248-344-6800",
"lat": "42.4700",
"lon": "-83.4900",
"event_status": "0"
},
{
"event_type": "3",
"event_id": "4207",
"store_id": "335",
"date": "03/23/2016",
"start_time": "19:00",
"end_time": "21:00",
"store_name": "Modesto Vintage Fair",
"address1": "500 VINTAGE FAIRE",
"address2": "",
"city": "Modesto",
"state": "CA",
"zip": "95356",
"region": "Northwest",
"district": "Bay Area South",
"floor": "1st floor",
"contact_phone": "000-000-0000",
"contact_email": "menswearhouse@macys.com",
"phone": "209-575-3333",
"lat": "37.7200",
"lon": "-121.0300",
"event_status": "0"
},
{
"event_type": "3",
"event_id": "4208",
"store_id": "512",
"date": "03/23/2016",
"start_time": "19:00",
"end_time": "21:00",
"store_name": "Beverly Center",
"address1": "8500 BEVERLY BLVD.",
"address2": "",
"city": "Los Angeles",
"state": "CA",
"zip": "90048",
"region": "Southwest",
"district": "LA West",
"floor": "1st floor",
"contact_phone": "000-000-0000",
"contact_email": "menswearhouse@macys.com",
"phone": "310-854-6655",
"lat": "34.0700",
"lon": "-118.3700",
"event_status": "0"
},
{
"event_type": "3",
"event_id": "4209",
"store_id": "586",
"date": "03/23/2016",
"start_time": "19:00",
"end_time": "21:00",
"store_name": "Polaris Fashion Place",
"address1": "1300 POLARIS PKWY",
"address2": "",
"city": "Columbus",
"state": "OH",
"zip": "43240",
"region": "Midwest",
"district": "Columbus",
"floor": "1st floor",
"contact_phone": "000-000-0000",
"contact_email": "menswearhouse@macys.com",
"phone": "614-880-6300",
"lat": "39.9800",
"lon": "-82.9800",
"event_status": "0"
},
{
"event_type": "3",
"event_id": "4210",
"store_id": "688",
"date": "03/23/2016",
"start_time": "19:00",
"end_time": "21:00",
"store_name": "First Colony",
"address1": "16511 Southwest Freeway",
"address2": "",
"city": "Sugar Land",
"state": "TX",
"zip": "77479",
"region": "South Central",
"district": "Houston-Louisiana",
"floor": "1st floor",
"contact_phone": "000-000-0000",
"contact_email": "menswearhouse@macys.com",
"phone": "281-243-7600",
"lat": "29.6100",
"lon": "-95.6100",
"event_status": "0"
},
{
"event_type": "3",
"event_id": "4211",
"store_id": "7",
"date": "03/23/2016",
"start_time": "19:00",
"end_time": "21:00",
"store_name": "Staten Island",
"address1": "100 RICHMOND HILL ROAD",
"address2": "",
"city": "Staten Island",
"state": "NY",
"zip": "10314",
"region": "Northeast",
"district": "NYC Metro",
"floor": "1st floor",
"contact_phone": "000-000-0000",
"contact_email": "menswearhouse@macys.com",
"phone": "718-761-3000",
"lat": "40.5800",
"lon": "-74.1400",
"event_status": "0"
},
{
"event_type": "3",
"event_id": "4212",
"store_id": "68",
"date": "03/23/2016",
"start_time": "19:00",
"end_time": "21:00",
"store_name": "Metro Center (Downtown DC)",
"address1": "1201 G. STREET N.W.",
"address2": "",
"city": "Washington D.C.",
"state": "DC",
"zip": "20005",
"region": "Mid-Atlantic",
"district": "DelMarVa Central",
"floor": "1st floor",
"contact_phone": "000-000-0000",
"contact_email": "menswearhouse@macys.com",
"phone": "202-628-6661",
"lat": "38.8900",
"lon": "-77.0300",
"event_status": "0"
},
{
"event_type": "3",
"event_id": "4213",
"store_id": "132",
"date": "03/23/2016",
"start_time": "19:00",
"end_time": "21:00",
"store_name": "Eastview",
"address1": "7979 VICTOR-PITTSFORD RD",
"address2": "",
"city": "Victor",
"state": "NY",
"zip": "14564",
"region": "Midwest",
"district": "NY West",
"floor": "1st floor",
"contact_phone": "000-000-0000",
"contact_email": "menswearhouse@macys.com",
"phone": "585-223-9181",
"lat": "42.9800",
"lon": "-77.4100",
"event_status": "0"
},
{
"event_type": "3",
"event_id": "4214",
"store_id": "147",
"date": "03/23/2016",
"start_time": "19:00",
"end_time": "21:00",
"store_name": "Walden Galleria",
"address1": "4 WALDEN GALLERIA",
"address2": "",
"city": "Buffalo",
"state": "NY",
"zip": "14225",
"region": "Midwest",
"district": "NY West",
"floor": "1st floor",
"contact_phone": "000-000-0000",
"contact_email": "menswearhouse@macys.com",
"phone": "716-684-6267",
"lat": "42.8800",
"lon": "-78.8500",
"event_status": "0"
},
{
"event_type": "3",
"event_id": "4215",
"store_id": "148",
"date": "03/23/2016",
"start_time": "19:00",
"end_time": "21:00",
"store_name": "Destiny USA",
"address1": "9509 Destiny USA Dr",
"address2": "",
"city": "Syracuse",
"state": "NY",
"zip": "13290",
"region": "Northeast",
"district": "NY East",
"floor": "1st floor",
"contact_phone": "000-000-0000",
"contact_email": "menswearhouse@macys.com",
"phone": "315-466-3333",
"lat": "43.0400",
"lon": "-76.1400",
"event_status": "0"
},
{
"event_type": "3",
"event_id": "4216",
"store_id": "213",
"date": "03/23/2016",
"start_time": "19:00",
"end_time": "21:00",
"store_name": "Center City",
"address1": "1300 Market Street",
"address2": "",
"city": "Philadelphia",
"state": "PA",
"zip": "19107",
"region": "Mid-Atlantic",
"district": "Philadelphia",
"floor": "1st floor",
"contact_phone": "000-000-0000",
"contact_email": "menswearhouse@macys.com",
"phone": "215-241-9000",
"lat": "39.9500",
"lon": "-75.1600",
"event_status": "0"
},
{
"event_type": "3",
"event_id": "4217",
"store_id": "620",
"date": "03/23/2016",
"start_time": "19:00",
"end_time": "21:00",
"store_name": "Ross Park",
"address1": "1004 ROSS PARK MALL",
"address2": "",
"city": "Pittsburgh",
"state": "PA",
"zip": "15237",
"region": "Midwest",
"district": "Pittsburgh North",
"floor": "1st floor",
"contact_phone": "000-000-0000",
"contact_email": "menswearhouse@macys.com",
"phone": "412-366-1400",
"lat": "40.4300",
"lon": "-79.9700",
"event_status": "0"
},
{
"event_type": "3",
"event_id": "4218",
"store_id": "747",
"date": "03/23/2016",
"start_time": "19:00",
"end_time": "21:00",
"store_name": "Riverchase Galleria",
"address1": "2600 RIVERCHASE GALLERIA",
"address2": "",
"city": "Hoover",
"state": "AL",
"zip": "35244",
"region": "Southeast",
"district": "Atlanta West",
"floor": "1st floor",
"contact_phone": "000-000-0000",
"contact_email": "menswearhouse@macys.com",
"phone": "205-985-2600",
"lat": "33.5200",
"lon": "-86.7900",
"event_status": "0"
},
{
"event_type": "3",
"event_id": "4219",
"store_id": "776",
"date": "03/23/2016",
"start_time": "19:00",
"end_time": "21:00",
"store_name": "Dadeland",
"address1": "7303 S.W. 88TH ST",
"address2": "",
"city": "Miami",
"state": "FL",
"zip": "33156",
"region": "Southeast",
"district": "Miami South",
"floor": "1st floor",
"contact_phone": "000-000-0000",
"contact_email": "menswearhouse@macys.com",
"phone": "305-662-3400",
"lat": "25.7700",
"lon": "-80.2000",
"event_status": "0"
},
{
"event_type": "3",
"event_id": "4220",
"store_id": "218",
"date": "03/23/2016",
"start_time": "19:00",
"end_time": "21:00",
"store_name": "Old Orchard",
"address1": "1 Old Orchard Shopping Center",
"address2": "",
"city": "Skokie",
"state": "IL",
"zip": "60077",
"region": "North",
"district": "Chicago North",
"floor": "1st floor",
"contact_phone": "000-000-0000",
"contact_email": "menswearhouse@macys.com",
"phone": "847-329-2700",
"lat": "42.0300",
"lon": "-87.7300",
"event_status": "0"
},
{
"event_type": "3",
"event_id": "4221",
"store_id": "231",
"date": "03/23/2016",
"start_time": "19:00",
"end_time": "21:00",
"store_name": "Southdale Center",
"address1": "100 Southdale Center",
"address2": "",
"city": "Edina",
"state": "MN",
"zip": "55435",
"region": "North",
"district": "Minneapolis West",
"floor": "1st floor",
"contact_phone": "000-000-0000",
"contact_email": "menswearhouse@macys.com",
"phone": "952-924-6600",
"lat": "44.9600",
"lon": "-93.2600",
"event_status": "0"
},
{
"event_type": "3",
"event_id": "4222",
"store_id": "334",
"date": "03/23/2016",
"start_time": "19:00",
"end_time": "21:00",
"store_name": "Stanford",
"address1": "300 STANFORD MALL",
"address2": "",
"city": "Palo Alto",
"state": "CA",
"zip": "94304",
"region": "Northwest",
"district": "Valley Fair",
"floor": "1st floor",
"contact_phone": "000-000-0000",
"contact_email": "menswearhouse@macys.com",
"phone": "650-326-3333",
"lat": "37.3700",
"lon": "-122.1800",
"event_status": "0"
},
{
"event_type": "3",
"event_id": "4223",
"store_id": "367",
"date": "03/23/2016",
"start_time": "19:00",
"end_time": "21:00",
"store_name": "Seattle (Downtown)",
"address1": "300 Pine Street",
"address2": "",
"city": "Seattle",
"state": "WA",
"zip": "98101",
"region": "Northwest",
"district": "North Seattle",
"floor": "1st floor",
"contact_phone": "000-000-0000",
"contact_email": "menswearhouse@macys.com",
"phone": "206-506-6000",
"lat": "47.6100",
"lon": "-122.3300",
"event_status": "0"
},
{
"event_type": "3",
"event_id": "4224",
"store_id": "406",
"date": "03/23/2016",
"start_time": "19:00",
"end_time": "21:00",
"store_name": "Sacramento Downtown Plaza",
"address1": "414 K ST",
"address2": "",
"city": "Sacramento",
"state": "CA",
"zip": "95814",
"region": "Northwest",
"district": "Sacramento",
"floor": "1st floor",
"contact_phone": "000-000-0000",
"contact_email": "menswearhouse@macys.com",
"phone": "916-444-3333",
"lat": "38.5800",
"lon": "-121.4900",
"event_status": "0"
},
{
"event_type": "3",
"event_id": "4225",
"store_id": "408",
"date": "03/23/2016",
"start_time": "19:00",
"end_time": "21:00",
"store_name": "Roseville Galleria",
"address1": "1197 GALLERIA BLVD",
"address2": "",
"city": "Roseville",
"state": "CA",
"zip": "95678",
"region": "Northwest",
"district": "Sacramento",
"floor": "1st floor",
"contact_phone": "000-000-0000",
"contact_email": "menswearhouse@macys.com",
"phone": "916-771-3333",
"lat": "38.7600",
"lon": "-121.2800",
"event_status": "0"
},
{
"event_type": "3",
"event_id": "4226",
"store_id": "450",
"date": "03/23/2016",
"start_time": "19:00",
"end_time": "21:00",
"store_name": "Scottsdale Fashion Square",
"address1": "7014 EAST CAMELBACK RD",
"address2": "",
"city": "Scottsdale",
"state": "AZ",
"zip": "85251",
"region": "South Central",
"district": "Arizona",
"floor": "1st floor",
"contact_phone": "000-000-0000",
"contact_email": "menswearhouse@macys.com",
"phone": "480-840-0333",
"lat": "33.4900",
"lon": "-111.9200",
"event_status": "0"
},
{
"event_type": "3",
"event_id": "4227",
"store_id": "501",
"date": "03/23/2016",
"start_time": "19:00",
"end_time": "21:00",
"store_name": "Sherman Oaks Fashion Square",
"address1": "14000 Riverside Drive",
"address2": "",
"city": "Sherman Oaks",
"state": "CA",
"zip": "91423",
"region": "Southwest",
"district": "LA Valley",
"floor": "1st floor",
"contact_phone": "000-000-0000",
"contact_email": "menswearhouse@macys.com",
"phone": "818-788-8350",
"lat": "34.1400",
"lon": "-118.4200",
"event_status": "0"
},
{
"event_type": "3",
"event_id": "4228",
"store_id": "544",
"date": "03/23/2016",
"start_time": "19:00",
"end_time": "21:00",
"store_name": "Fashion Valley",
"address1": "7017 FRIARS RD",
"address2": "",
"city": "San Diego",
"state": "CA",
"zip": "92108",
"region": "Southwest",
"district": "San Diego",
"floor": "1st floor",
"contact_phone": "000-000-0000",
"contact_email": "menswearhouse@macys.com",
"phone": "619-299-9811",
"lat": "32.7700",
"lon": "-117.1000",
"event_status": "0"
},
{
"event_type": "3",
"event_id": "4229",
"store_id": "17",
"date": "03/23/2016",
"start_time": "19:00",
"end_time": "21:00",
"store_name": "Freehold Raceway",
"address1": "3710 Route 9 South",
"address2": "Freehold Raceway Mall",
"city": "Freehold",
"state": "NJ",
"zip": "07728",
"region": "Mid-Atlantic",
"district": "NJ Central",
"floor": "1st floor",
"contact_phone": "000-000-0000",
"contact_email": "menswearhouse@macys.com",
"phone": "732-683-1345",
"lat": "40.2500",
"lon": "-74.2700",
"event_status": "0"
},
{
"event_type": "3",
"event_id": "4230",
"store_id": "23",
"date": "03/23/2016",
"start_time": "19:00",
"end_time": "21:00",
"store_name": "Tysons Corner Center",
"address1": "8000 Tysons Corner Center",
"address2": "",
"city": "McLean",
"state": "VA",
"zip": "22102",
"region": "Mid-Atlantic",
"district": "DelMarVa South",
"floor": "1st floor",
"contact_phone": "000-000-0000",
"contact_email": "menswearhouse@macys.com",
"phone": "703-893-4900",
"lat": "38.9400",
"lon": "-77.1900",
"event_status": "0"
},
{
"event_type": "3",
"event_id": "4231",
"store_id": "37",
"date": "03/23/2016",
"start_time": "19:00",
"end_time": "21:00",
"store_name": "Burlington",
"address1": "1300 Middlesex Turnpike",
"address2": "Burlington Mall",
"city": "Burlington",
"state": "MA",
"zip": "01803",
"region": "Northeast",
"district": "New England North",
"floor": "1st floor",
"contact_phone": "000-000-0000",
"contact_email": "menswearhouse@macys.com",
"phone": "781-272-6000",
"lat": "42.5000",
"lon": "-71.2000",
"event_status": "0"
},
{
"event_type": "3",
"event_id": "4232",
"store_id": "53",
"date": "03/23/2016",
"start_time": "19:00",
"end_time": "21:00",
"store_name": "Roosevelt Field",
"address1": "630 Old Country Road",
"address2": "",
"city": "Garden City",
"state": "NY",
"zip": "11530",
"region": "Northeast",
"district": "Long Island West",
"floor": "1st floor",
"contact_phone": "000-000-0000",
"contact_email": "menswearhouse@macys.com",
"phone": "516-746-8200",
"lat": "40.7200",
"lon": "-73.6400",
"event_status": "0"
},
{
"event_type": "3",
"event_id": "4233",
"store_id": "102",
"date": "03/23/2016",
"start_time": "19:00",
"end_time": "21:00",
"store_name": "Walt Whitman",
"address1": "180 WALT WHITMAN CENTER",
"address2": "",
"city": "Huntington",
"state": "NY",
"zip": "11746",
"region": "Northeast",
"district": "Long Island East",
"floor": "1st floor",
"contact_phone": "000-000-0000",
"contact_email": "menswearhouse@macys.com",
"phone": "631-427-7200",
"lat": "40.8400",
"lon": "-73.4000",
"event_status": "0"
},
{
"event_type": "3",
"event_id": "4234",
"store_id": "561",
"date": "03/23/2016",
"start_time": "19:00",
"end_time": "21:00",
"store_name": "Fayette",
"address1": "3301 NICHOLASVILLE ROAD",
"address2": "",
"city": "Lexington",
"state": "KY",
"zip": "40503",
"region": "Midwest",
"district": "Cincinnati",
"floor": "1st floor",
"contact_phone": "000-000-0000",
"contact_email": "menswearhouse@macys.com",
"phone": "859-271-7200",
"lat": "38.0400",
"lon": "-84.4500",
"event_status": "0"
},
{
"event_type": "3",
"event_id": "4235",
"store_id": "622",
"date": "03/23/2016",
"start_time": "19:00",
"end_time": "21:00",
"store_name": "Monroeville",
"address1": "400 MONROEVILLE MALL",
"address2": "",
"city": "Monroeville",
"state": "PA",
"zip": "15146",
"region": "Midwest",
"district": "Pittsburgh North",
"floor": "1st floor",
"contact_phone": "000-000-0000",
"contact_email": "menswearhouse@macys.com",
"phone": "412-858-3700",
"lat": "40.4200",
"lon": "-79.7600",
"event_status": "0"
},
{
"event_type": "3",
"event_id": "4236",
"store_id": "795",
"date": "03/23/2016",
"start_time": "19:00",
"end_time": "21:00",
"store_name": "Oak Court",
"address1": "4545 POPLAR AVENUE",
"address2": "",
"city": "Memphis",
"state": "TN",
"zip": "38117",
"region": "Midwest",
"district": "Tennessee",
"floor": "1st floor",
"contact_phone": "000-000-0000",
"contact_email": "menswearhouse@macys.com",
"phone": "901-766-4199",
"lat": "35.1000",
"lon": "-90.0000",
"event_status": "0"
},
{
"event_type": "3",
"event_id": "4237",
"store_id": "796",
"date": "03/23/2016",
"start_time": "19:00",
"end_time": "21:00",
"store_name": "Wolfchase Galleria",
"address1": "2840 N. GERMANTOWN PARKWAY",
"address2": "",
"city": "Memphis",
"state": "TN",
"zip": "38133",
"region": "Midwest",
"district": "Tennessee",
"floor": "1st floor",
"contact_phone": "000-000-0000",
"contact_email": "menswearhouse@macys.com",
"phone": "901-937-2600",
"lat": "35.1000",
"lon": "-90.0000",
"event_status": "0"
},
{
"event_type": "3",
"event_id": "4238",
"store_id": "217",
"date": "03/23/2016",
"start_time": "19:00",
"end_time": "21:00",
"store_name": "Oakbrook Center",
"address1": "1 Oak Brook Center",
"address2": "",
"city": "Oak Brook",
"state": "IL",
"zip": "60523",
"region": "North",
"district": "Chicago North",
"floor": "1st floor",
"contact_phone": "000-000-0000",
"contact_email": "menswearhouse@macys.com",
"phone": "630-684-2400",
"lat": "41.8300",
"lon": "-87.9500",
"event_status": "0"
},
{
"event_type": "3",
"event_id": "4239",
"store_id": "232",
"date": "03/23/2016",
"start_time": "19:00",
"end_time": "21:00",
"store_name": "Ridgedale",
"address1": "12411 WAYZATA BLVD.",
"address2": "",
"city": "Minnetonka",
"state": "MN",
"zip": "55305",
"region": "North",
"district": "Minneapolis West",
"floor": "1st floor",
"contact_phone": "000-000-0000",
"contact_email": "menswearhouse@macys.com",
"phone": "952-591-6600",
"lat": "44.9200",
"lon": "-93.4000",
"event_status": "0"
},
{
"event_type": "3",
"event_id": "4240",
"store_id": "259",
"date": "03/23/2016",
"start_time": "19:00",
"end_time": "21:00",
"store_name": "Woodfield",
"address1": "1 Woodfield Mall",
"address2": "",
"city": "Schaumburg",
"state": "IL",
"zip": "60173",
"region": "North",
"district": "Chicago South",
"floor": "1st floor",
"contact_phone": "000-000-0000",
"contact_email": "menswearhouse@macys.com",
"phone": "847-706-6000",
"lat": "42.0300",
"lon": "-88.0800",
"event_status": "0"
},
{
"event_type": "3",
"event_id": "4241",
"store_id": "324",
"date": "03/23/2016",
"start_time": "19:00",
"end_time": "21:00",
"store_name": "Walnut Creek Broadway Plaza",
"address1": "1320 BROADWAY PLAZA",
"address2": "",
"city": "Walnut Creek",
"state": "CA",
"zip": "94596",
"region": "Northwest",
"district": "Bay Area North",
"floor": "1st floor",
"contact_phone": "000-000-0000",
"contact_email": "menswearhouse@macys.com",
"phone": "925-279-3333",
"lat": "37.8900",
"lon": "-122.0300",
"event_status": "0"
},
{
"event_type": "3",
"event_id": "4242",
"store_id": "325",
"date": "03/23/2016",
"start_time": "19:00",
"end_time": "21:00",
"store_name": "Santa Rosa Plaza",
"address1": "800 SANTA ROSE PLAZA",
"address2": "",
"city": "Santa Rosa",
"state": "CA",
"zip": "95401",
"region": "Northwest",
"district": "Bay Area North",
"floor": "1st floor",
"contact_phone": "000-000-0000",
"contact_email": "menswearhouse@macys.com",
"phone": "707-523-3333",
"lat": "38.4400",
"lon": "-122.7800",
"event_status": "0"
},
{
"event_type": "3",
"event_id": "4243",
"store_id": "434",
"date": "03/23/2016",
"start_time": "19:00",
"end_time": "21:00",
"store_name": "Tacoma",
"address1": "4502 SOUTH STEELE",
"address2": "#700",
"city": "Tacoma",
"state": "WA",
"zip": "98409",
"region": "Northwest",
"district": "South Seattle",
"floor": "1st floor",
"contact_phone": "000-000-0000",
"contact_email": "menswearhouse@macys.com",
"phone": "253-471-6800",
"lat": "47.2100",
"lon": "-122.4700",
"event_status": "0"
},
{
"event_type": "3",
"event_id": "4244",
"store_id": "466",
"date": "03/23/2016",
"start_time": "19:00",
"end_time": "21:00",
"store_name": "Ala Moana (Oahu)",
"address1": "1450 ALA MOANA BLVD.",
"address2": "",
"city": "Honolulu",
"state": "HI",
"zip": "96814",
"region": "Southwest",
"district": "Hawaii",
"floor": "1st floor",
"contact_phone": "000-000-0000",
"contact_email": "menswearhouse@macys.com",
"phone": "808-941-2345",
"lat": "21.3000",
"lon": "-157.8500",
"event_status": "0"
},
{
"event_type": "3",
"event_id": "4245",
"store_id": "508",
"date": "03/23/2016",
"start_time": "19:00",
"end_time": "21:00",
"store_name": "Pasadena",
"address1": "401 SOUTHLAKE AVE",
"address2": "",
"city": "Pasadena",
"state": "CA",
"zip": "91101",
"region": "Southwest",
"district": "LA Valley",
"floor": "1st floor",
"contact_phone": "000-000-0000",
"contact_email": "menswearhouse@macys.com",
"phone": "626-792-0211",
"lat": "34.1400",
"lon": "-118.1300",
"event_status": "0"
},
{
"event_type": "3",
"event_id": "4246",
"store_id": "514",
"date": "03/23/2016",
"start_time": "19:00",
"end_time": "21:00",
"store_name": "Manhattan Beach",
"address1": "3400 SEPULVEDA BLVD",
"address2": "",
"city": "Manhattan Beach",
"state": "CA",
"zip": "90266",
"region": "Southwest",
"district": "LA West",
"floor": "1st floor",
"contact_phone": "000-000-0000",
"contact_email": "menswearhouse@macys.com",
"phone": "310-546-5525",
"lat": "33.8800",
"lon": "-118.4000",
"event_status": "0"
},
{
"event_type": "3",
"event_id": "4247",
"store_id": "515",
"date": "03/23/2016",
"start_time": "19:00",
"end_time": "21:00",
"store_name": "Westside Pavilion",
"address1": "10730 W. PICO BLVD",
"address2": "",
"city": "Los Angeles",
"state": "CA",
"zip": "90064",
"region": "Southwest",
"district": "LA West",
"floor": "1st floor",
"contact_phone": "000-000-0000",
"contact_email": "menswearhouse@macys.com",
"phone": "310-475-4911",
"lat": "34.0300",
"lon": "-118.4300",
"event_status": "0"
},
{
"event_type": "3",
"event_id": "4248",
"store_id": "574",
"date": "03/23/2016",
"start_time": "19:00",
"end_time": "21:00",
"store_name": "Southpark Center",
"address1": "17447 ROYALTON ROAD",
"address2": "",
"city": "Strongsville",
"state": "OH",
"zip": "44136",
"region": "Midwest",
"district": "Cleveland",
"floor": "1st floor",
"contact_phone": "000-000-0000",
"contact_email": "menswearhouse@macys.com",
"phone": "440-846-7000",
"lat": "41.3100",
"lon": "-81.8300",
"event_status": "0"
},
{
"event_type": "3",
"event_id": "4249",
"store_id": "5",
"date": "03/23/2016",
"start_time": "19:00",
"end_time": "21:00",
"store_name": "Manhasset",
"address1": "1100 NORTHERN BLVD",
"address2": "",
"city": "Manhasset",
"state": "NY",
"zip": "11030",
"region": "Northeast",
"district": "Long Island West",
"floor": "1st floor",
"contact_phone": "000-000-0000",
"contact_email": "menswearhouse@macys.com",
"phone": "516-869-8500",
"lat": "40.7900",
"lon": "-73.6900",
"event_status": "0"
},
{
"event_type": "3",
"event_id": "4250",
"store_id": "10",
"date": "03/23/2016",
"start_time": "19:00",
"end_time": "21:00",
"store_name": "Paramus Park",
"address1": "100 PARAMUS PARK MALL",
"address2": "",
"city": "Paramus",
"state": "NJ",
"zip": "07652",
"region": "Northeast",
"district": "NYC Metro",
"floor": "1st floor",
"contact_phone": "000-000-0000",
"contact_email": "menswearhouse@macys.com",
"phone": "201-967-1400",
"lat": "40.9400",
"lon": "-74.0700",
"event_status": "0"
},
{
"event_type": "3",
"event_id": "4251",
"store_id": "76",
"date": "03/23/2016",
"start_time": "19:00",
"end_time": "21:00",
"store_name": "Willowbrook",
"address1": "100 ROUTE 46",
"address2": "",
"city": "Wayne",
"state": "NJ",
"zip": "07470",
"region": "Mid-Atlantic",
"district": "NJ North",
"floor": "1st floor",
"contact_phone": "000-000-0000",
"contact_email": "menswearhouse@macys.com",
"phone": "973-785-9525",
"lat": "40.9400",
"lon": "-74.2400",
"event_status": "0"
},
{
"event_type": "3",
"event_id": "4252",
"store_id": "216",
"date": "03/23/2016",
"start_time": "19:00",
"end_time": "21:00",
"store_name": "Fair Oaks",
"address1": "11700 Lee Jackson Memorial Highway",
"address2": "",
"city": "Fairfax",
"state": "VA",
"zip": "22033",
"region": "Mid-Atlantic",
"district": "DelMarVa South",
"floor": "1st floor",
"contact_phone": "000-000-0000",
"contact_email": "menswearhouse@macys.com",
"phone": "703-591-3900",
"lat": "38.8500",
"lon": "-77.2900",
"event_status": "0"
},
{
"event_type": "3",
"event_id": "4253",
"store_id": "632",
"date": "03/23/2016",
"start_time": "19:00",
"end_time": "21:00",
"store_name": "The Mall At Robinson",
"address1": "3000 ROBINSONS CENTRE DRIVE",
"address2": "",
"city": "Pittsburgh",
"state": "PA",
"zip": "15205",
"region": "Midwest",
"district": "Pittsburgh East",
"floor": "1st floor",
"contact_phone": "000-000-0000",
"contact_email": "menswearhouse@macys.com",
"phone": "412-787-9777",
"lat": "40.4300",
"lon": "-79.9700",
"event_status": "0"
},
{
"event_type": "3",
"event_id": "4254",
"store_id": "811",
"date": "03/23/2016",
"start_time": "19:00",
"end_time": "21:00",
"store_name": "Florida Mall",
"address1": "8001 S. ORANGE BLOSSOM TRAIL",
"address2": "",
"city": "Orlando",
"state": "FL",
"zip": "32809",
"region": "Southeast",
"district": "Northern Florida",
"floor": "1st floor",
"contact_phone": "000-000-0000",
"contact_email": "menswearhouse@macys.com",
"phone": "407-854-2300",
"lat": "28.5000",
"lon": "-81.3700",
"event_status": "0"
}
],
"options": [ ],
"dateupdated": "2016/04/20 21:18:44 UTC"
}